{"airport_id": "TJSJ", "name": "Luis Mu\u00f1oz Mar\u00edn International Airport", "icao": "TJSJ", "iata": "SJU", "lat": 18.4394, "lon": -66.0012, "municipality": "Carolina", "elevation_ft": 9.0, "runway_length_m": 3170.0, "runway_surface": "Asphalt/Concrete", "operational_status": "Active", "ownership": "PR Ports Authority / PPP", "landing_type": "Airport", "confidence": 95.0, "source": "FAA NASR + Airport_Master_PR_seed"}
{"airport_id": "TJIG", "name": "Fernando Luis Ribas Dominicci Airport", "icao": "TJIG", "iata": "SIG", "lat": 18.45667, "lon": -66.09833, "municipality": "San Juan", "elevation_ft": 10.0, "runway_length_m": 1688.0, "runway_surface": "Asphalt", "operational_status": "Active", "ownership": "PR Ports Authority", "landing_type": "Airport", "confidence": 95.0, "source": "FAA NASR + Airport_Master_PR_seed"}
{"airport_id": "TJBQ", "name": "Rafael Hern\u00e1ndez Airport", "icao": "TJBQ", "iata": "BQN", "lat": 18.4949, "lon": -67.1294, "municipality": "Aguadilla", "elevation_ft": 237.6, "runway_length_m": 3567.0, "runway_surface": "Asphalt/Concrete", "operational_status": "Active", "ownership": "PR Ports Authority", "landing_type": "Airport (Former AFB)", "confidence": 95.0, "source": "FAA NASR + Airport_Master_PR_seed"}
{"airport_id": "TJRV", "name": "Jos\u00e9 Aponte de la Torre Airport", "icao": "TJRV", "iata": "NRR", "lat": 18.23575, "lon": -65.6565, "municipality": "Ceiba", "elevation_ft": 38.1, "runway_length_m": 3353.0, "runway_surface": "Asphalt/Concrete", "operational_status": "Active (limited)", "ownership": "PR Ports Authority", "landing_type": "Airport (Former Naval)", "confidence": 95.0, "source": "FAA NASR + Airport_Master_PR_seed"}
{"airport_id": "TJMZ", "name": "Eugenio Mar\u00eda de Hostos Airport", "icao": "TJMZ", "iata": "MAZ", "lat": 18.25575, "lon": -67.14875, "municipality": "Mayag\u00fcez", "elevation_ft": 27.0, "runway_length_m": 1523.0, "runway_surface": "Asphalt", "operational_status": "Active", "ownership": "PR Ports Authority", "landing_type": "Airport", "confidence": 95.0, "source": "FAA NASR + Airport_Master_PR_seed"}
{"airport_id": "TJPS", "name": "Mercedita Airport", "icao": "TJPS", "iata": "PSE", "lat": 18.013, "lon": -66.563, "municipality": "Ponce", "elevation_ft": 28.0, "runway_length_m": 2439.0, "runway_surface": "Asphalt", "operational_status": "Active", "ownership": "PR Ports Authority", "landing_type": "Airport", "confidence": 95.0, "source": "FAA NASR + Airport_Master_PR_seed"}
{"airport_id": "TJAB", "name": "Antonio (Nery) Juarbe Pol Airport", "icao": "TJAB", "iata": "ARE", "lat": 18.4509, "lon": -66.6754, "municipality": "Arecibo", "elevation_ft": 23.0, "runway_length_m": 1211.0, "runway_surface": "Asphalt", "operational_status": "Active", "ownership": "Public (civil)", "landing_type": "Airport", "confidence": 95.0, "source": "FAA NASR + Airport_Master_PR_seed"}
{"airport_id": "TJFA", "name": "Diego Jim\u00e9nez Torres Airport", "icao": "TJFA", "iata": "FAJ", "lat": 18.3089, "lon": -65.6617, "municipality": "Fajardo", "elevation_ft": 64.0, "runway_length_m": 1097.0, "runway_surface": "Asphalt", "operational_status": "Closed (2015)", "ownership": "PR Ports Authority", "landing_type": "Airport", "confidence": 90.0, "source": "FAA NASR + Airport_Master_PR_seed"}
{"airport_id": "LZ-PR-0009", "name": "Dr. Hermenegildo Ortiz Qui\u00f1ones Airport", "icao": null, "iata": "HUC", "lat": 18.1362, "lon": -65.8005, "municipality": "Humacao", "elevation_ft": 33.0, "runway_length_m": 747.0, "runway_surface": "Asphalt", "operational_status": "Active", "ownership": "PR Ports Authority", "landing_type": "Airport", "confidence": 85.0, "source": "FAA NASR + Airport_Master_PR_seed"}
{"airport_id": "LZ-PR-0101", "name": "Fort Allen Airfield (Losey AAF legacy)", "icao": null, "iata": null, "lat": 18.0084, "lon": -66.5067, "municipality": "Juana D\u00edaz", "elevation_ft": 31.0, "runway_length_m": 1646.0, "runway_surface": "paved (historic)", "operational_status": "Inactive", "ownership": "PRNG / Federal", "landing_type": "Airstrip (Former Military)", "confidence": 85.0, "source": "FAA NASR + Airport_Master_PR_seed"}
{"airport_id": "LZ-PR-0102", "name": "Sabana Seca (NAS) South Tract (approx)", "icao": null, "iata": null, "lat": 18.42917, "lon": -66.2, "municipality": "Toa Baja", "elevation_ft": null, "runway_length_m": null, "runway_surface": null, "operational_status": "Not an airport (RC)", "ownership": "Federal/Unknown", "landing_type": "Non-standard / RC", "confidence": 55.0, "source": "FAA NASR + Airport_Master_PR_seed"}
{"airport_id": "LZ-PR-0103", "name": "Boquer\u00f3n Airport", "icao": null, "iata": null, "lat": 18.00767, "lon": -67.1405, "municipality": "Cabo Rojo", "elevation_ft": 3.0, "runway_length_m": 914.0, "runway_surface": "Asphalt", "operational_status": "Operational (private)", "ownership": "Private", "landing_type": "Airstrip (Private)", "confidence": 90.0, "source": "FAA NASR + Airport_Master_PR_seed"}
{"airport_id": "LZ-PR-0104", "name": "Cuylers Airport", "icao": null, "iata": null, "lat": 18.4533333, "lon": -66.3669444, "municipality": "Vega Baja", "elevation_ft": 15.0, "runway_length_m": 610.0, "runway_surface": null, "operational_status": "Operational (private)", "ownership": "Private", "landing_type": "Airstrip (Private)", "confidence": 90.0, "source": "FAA NASR + Airport_Master_PR_seed"}
{"airport_id": "LZ-PR-0105", "name": "Santa Isabel Airport", "icao": null, "iata": null, "lat": 17.9632, "lon": -66.3912, "municipality": "Santa Isabel", "elevation_ft": 27.0, "runway_length_m": 1219.0, "runway_surface": "Asphalt", "operational_status": "Operational (private)", "ownership": "Private", "landing_type": "Airstrip (Private)", "confidence": 85.0, "source": "FAA NASR + Airport_Master_PR_seed"}
{"airport_id": "LZ-PR-0106", "name": "Lajas Airpark", "icao": null, "iata": null, "lat": 18.0125, "lon": -67.075, "municipality": "Lajas", "elevation_ft": 30.0, "runway_length_m": 874.0, "runway_surface": "turf", "operational_status": "Operational (private)", "ownership": "Private", "landing_type": "Airstrip (Private)", "confidence": 90.0, "source": "FAA NASR + Airport_Master_PR_seed"}
{"airport_id": "LZ-PR-0107", "name": "Vega Baja Auxiliary Airdrome / Tortuguero Airfield (historic)", "icao": null, "iata": null, "lat": 18.48, "lon": -66.43, "municipality": "Vega Baja", "elevation_ft": null, "runway_length_m": 1067.0, "runway_surface": "asphalt (rough)", "operational_status": "Abandoned / non-aviation", "ownership": "Commonwealth/Municipal", "landing_type": "Airstrip (Historic)", "confidence": 80.0, "source": "FAA NASR + Airport_Master_PR_seed"}
{"airport_id": "LZ-PR-0108", "name": "San Sebasti\u00e1n RC airstrip (non-aviation)", "icao": null, "iata": null, "lat": 18.3366, "lon": -66.9902, "municipality": "San Sebasti\u00e1n", "elevation_ft": null, "runway_length_m": null, "runway_surface": null, "operational_status": "Not an airport (RC)", "ownership": "Unknown", "landing_type": "Non-standard / RC", "confidence": 40.0, "source": "FAA NASR + Airport_Master_PR_seed"}
{"airport_id": "LZ-PR-0201", "name": "Puerto del Rey (marina-associated helipad, approx)", "icao": null, "iata": null, "lat": 18.286394, "lon": -65.635521, "municipality": "Fajardo/Ceiba", "elevation_ft": null, "runway_length_m": null, "runway_surface": null, "operational_status": "Unverified (needs imagery)", "ownership": "Private", "landing_type": "Helipad (Private)", "confidence": 55.0, "source": "FAA NASR + Airport_Master_PR_seed"}
{"airport_id": "LZ-PR-0202", "name": "Helipuerto del Cuerpo de Bomberos (Coto Sur)", "icao": null, "iata": null, "lat": 18.4247187, "lon": -66.4682434, "municipality": "Toa Baja (Coto Sur)", "elevation_ft": null, "runway_length_m": null, "runway_surface": null, "operational_status": "Unverified (needs AirNav/OSM confirm)", "ownership": "Government", "landing_type": "Helipad (Public safety)", "confidence": 45.0, "source": "FAA NASR + Airport_Master_PR_seed"}
